[
  {
    "id": 100,
    "name": "베네시안 호텔",
    "type": "호텔",
    "description": "이탈리아 베네치아를 테마로 한 세계 최대 규모의 카지노 리조트입니다. 실내에 구현된 운하와 곤돌라, 화려한 쇼핑몰을 갖춘 마카오의 랜드마크입니다.",
    "entertainment": "곤돌라 탑승, 팀랩 슈퍼네이처, 그랜드 캐널 숍스 쇼핑",
    "restaurants": "북방관(North), 로드 스토우즈 에그타르트, 레이 가든",
    "transport": "공항 및 페리 터미널 무료 셔틀버스 운행",
    "latitude": 22.1477,
    "longitude": 113.5596,
    "siteUrl": "https://ko.venetianmacao.com/",
    "thumbnailImage": "venetian"
  },
  {
    "id": 101,
    "name": "스튜디오시티 호텔",
    "type": "호텔",
    "description": "할리우드 영화를 테마로 한 엔터테인먼트 리조트입니다. 세계 최초 '8'자 모양의 관람차 '골든릴'과 다양한 어트랙션을 갖추고 있습니다.",
    "entertainment": "골든릴, 배트맨 다크 플라이트, 워너브라더스 펀 존",
    "restaurants": "펄 드래곤(Pearl Dragon), 비잉(Bi Ying), 쇼유(Spotlight)",
    "transport": "공항 및 페리 터미널 무료 셔틀버스 운행",
    "latitude": 22.1417,
    "longitude": 113.5635,
    "siteUrl": "https://www.studiocity-macau.com/en",
    "thumbnailImage": "studiocity"
  },
  {
    "id": 102,
    "name": "파리지앵 호텔",
    "type": "호텔",
    "description": "프랑스 파리를 테마로 한 로맨틱한 분위기의 호텔입니다. 에펠탑을 실제 크기의 절반으로 재현한 건축물이 상징적입니다.",
    "entertainment": "에펠탑 전망대, 아쿠아월드, 파리지앵 극장, 숍스 앳 파리지앵",
    "restaurants": "라 쉬느(La Chine), 브래서리(Brasserie), 르 부페(Le Buffet)",
    "transport": "공항 및 페리 터미널 무료 셔틀버스 운행",
    "latitude": 22.1437,
    "longitude": 113.5659,
    "siteUrl": "https://ko.parisianmacao.com/",
    "thumbnailImage": "parisian"
  },
  {
    "id": 103,
    "name": "포시즌스 호텔 마카오",
    "type": "호텔",
    "description": "코타이 스트립에 위치한 럭셔리 호텔로, 프라이빗하고 품격 있는 서비스를 제공합니다. 쇼핑몰과 바로 연결되어 편리합니다.",
    "entertainment": "더 플라자 쇼핑몰, 호텔 수영장, 스파",
    "restaurants": "지얏힌(Zi Yat Heen), 벨칸카오(Belcanção)",
    "transport": "공항 및 페리 터미널 무료 셔틀버스 운행",
    "latitude": 22.1488,
    "longitude": 113.5629,
    "siteUrl": "https://www.fourseasons.com/macau/",
    "thumbnailImage": "four_seasons"
  },
  {
    "id": 104,
    "name": "갤럭시 호텔",
    "type": "호텔",
    "description": "아시아 최대 규모의 복합 리조트 중 하나로, 세계 최대 규모의 인공 파도풀과 유수풀을 자랑하는 '그랜드 리조트 데크'가 유명합니다.",
    "entertainment": "그랜드 리조트 데크, 갤럭시 시네마, 더 프롬나드 숍스",
    "restaurants": "테라자(Terrazza), 라이힌(Lai Heen), 8½ 오토 에 메조 봄바나(8½ Otto e Mezzo BOMBANA)",
    "transport": "공항 및 페리 터미널 무료 셔틀버스 운행",
    "latitude": 22.1522,
    "longitude": 113.5517,
    "siteUrl": "https://www.galaxymacau.com/en/hotels/galaxy-hotel/",
    "thumbnailImage": "galaxy"
  },
  {
    "id": 105,
    "name": "리츠칼튼 호텔",
    "type": "호텔",
    "description": "갤럭시 마카오 리조트 단지 내에 위치한 세계적인 수준의 럭셔리 호텔입니다. 전 객실 스위트룸으로 구성되어 있으며, 최상의 서비스와 시설을 자랑합니다.",
    "entertainment": "ESPA, 호텔 수영장, 갤럭시 리조트 내 시설 이용",
    "restaurants": "라이힌(Lai Heen), 리츠칼튼 카페(The Ritz-Carlton Café)",
    "transport": "공항 및 페리 터미널 무료 셔틀버스 운행",
    "latitude": 22.1501,
    "longitude": 113.5530,
    "siteUrl": "https://www.ritzcarlton.com/en/hotels/mfmrz-the-ritz-carlton-macau/overview/",
    "thumbnailImage": "ritz_carlton"
  },
  {
    "id": 106,
    "name": "JW 메리어트 호텔 마카오",
    "type": "호텔",
    "description": "갤럭시 마카오 리조트 단지 내에 위치한 럭셔리 호텔로, 가족 단위 여행객에게 인기가 많습니다. '그랜드 리조트 데크'와 바로 연결되어 편리합니다.",
    "entertainment": "그랜드 리조트 데크, JW 키즈 클럽, 갤럭시 리조트 내 시설 이용",
    "restaurants": "어반 키친(Urban Kitchen), 더 라운지(The Lounge)",
    "transport": "공항 및 페리 터미널 무료 셔틀버스 운행",
    "latitude": 22.1495,
    "longitude": 113.5522,
    "siteUrl": "https://www.marriott.com/en-us/hotels/mfmjw-jw-marriott-hotel-macau/overview/",
    "thumbnailImage": "jw_marriott"
  },
  {
    "id": 107,
    "name": "안다즈 호텔 마카오",
    "type": "호텔",
    "description": "갤럭시 마카오 리조트 단지 내에 위치한 라이프스타일 호텔입니다. 활기차고 예술적인 분위기와 현지 문화를 반영한 인테리어가 특징입니다.",
    "entertainment": "그랜드 리조트 데크, 갤럭시 리조트 내 시설 이용, 안다즈 바",
    "restaurants": "안다즈 키친(Andaz Kitchen), 안다즈 라운지(Andaz Lounge)",
    "transport": "공항 및 페리 터미널 무료 셔틀버스 운행",
    "latitude": 22.1505,
    "longitude": 113.5540,
    "siteUrl": "https://www.galaxymacau.com/en/hotels/andaz-macau/",
    "thumbnailImage": "andaz_macau"
  },
  {
    "id": 108,
    "name": "호텔 오쿠라 마카오",
    "type": "호텔",
    "description": "갤럭시 마카오 리조트 내에 위치하며, 일본 전통의 섬세하고 정중한 서비스를 제공하는 호텔입니다. 동양적인 우아함과 현대적인 편안함이 조화를 이룹니다.",
    "entertainment": "그랜드 리조트 데크, 갤럭시 리조트 내 시설 이용, 사우나 및 스팀룸",
    "restaurants": "야마자토(Yamazato), 나기(Nagomi), 테라자(Terrazza)",
    "transport": "공항 및 페리 터미널 무료 셔틀버스 운행",
    "latitude": 22.1511,
    "longitude": 113.5519,
    "siteUrl": "https://www.hotelokuramacau.com/ko",
    "thumbnailImage": "hotel_okura"
  },
  {
    "id": 109,
    "name": "반얀트리 마카오",
    "type": "호텔",
    "description": "갤럭시 마카오 리조트 내에 위치한 올-스위트, 올-빌라 럭셔리 호텔입니다. 모든 객실에 프라이빗 풀이 있어 완벽한 휴식을 제공합니다.",
    "entertainment": "반얀트리 스파, 프라이빗 풀, 그랜드 리조트 데크",
    "restaurants": "샤프란(Saffron), 벨라 비타(Belon), 반얀 라운지(Banyan Lounge)",
    "transport": "공항 및 페리 터미널 무료 셔틀버스 운행",
    "latitude": 22.1508,
    "longitude": 113.5512,
    "siteUrl": "https://www.banyantree.com/macau",
    "thumbnailImage": "banyan_tree"
  },
  {
    "id": 110,
    "name": "브로드웨이 호텔",
    "type": "호텔",
    "description": "갤럭시 마카오와 연결된 호텔로, 활기 넘치는 브로드웨이 푸드 스트리트와 제로-디스턴스 쇼를 즐길 수 있는 엔터테인먼트 중심의 호텔입니다.",
    "entertainment": "브로드웨이 극장, 브로드웨이 푸드 스트리트",
    "restaurants": "브로드웨이 푸드 스트리트 내 다양한 로컬 맛집, 팀호완(Tim Ho Wan)",
    "transport": "공항 및 페리 터미널 무료 셔틀버스 운행",
    "latitude": 22.1528,
    "longitude": 113.5501,
    "siteUrl": "https://www.broadwaymacau.com.mo/hotel/",
    "thumbnailImage": "broadway"
  },
  {
    "id": 111,
    "name": "런더너 호텔",
    "type": "호텔",
    "description": "영국의 수도 런던을 테마로 한 럭셔리 호텔로, 빅벤과 런던 버스 등 런던의 상징적인 요소들을 재현해 놓았습니다.",
    "entertainment": "런더너 모먼츠, 근위병 교대식, 크리스탈 팰리스",
    "restaurants": "처칠스 테이블, 고든 램지 스테이크, 노스 팰리스",
    "transport": "공항 및 페리 터미널 무료 셔틀버스 운행",
    "latitude": 22.1455,
    "longitude": 113.5615,
    "siteUrl": "https://ko.londonermacao.com/",
    "thumbnailImage": "londoner"
  }

]
